City_ID,City,Country,Max Temp,Current Description,Lat,Lng,Hotel Name
1,Jamestown,US,72.99,scattered clouds,42.097,-79.2353,Hampton Inn & Suites Jamestown
3,East London,ZA,52.81,clear sky,-33.0153,27.9116,Tu Casa
4,Georgetown,MY,82.89,few clouds,5.4112,100.3354,Cititel Penang
5,Kapaa,US,84.18,light rain,22.0752,-159.319,Sheraton Kauai Coconut Beach Resort
6,Deputatskiy,RU,53.13,scattered clouds,69.3,139.9,Baza Otdykha
7,Puerto Ayora,EC,72.55,few clouds,-0.7393,-90.3518,Finch Bay Galapagos Hotel
9,Sept-Iles,CA,62.26,scattered clouds,50.2001,-66.3821,Comfort Inn
10,Mar Del Plata,AR,52.12,overcast clouds,-38.0023,-57.5575,Gran Hotel Mar del Plata
12,Saint George,US,85.53,few clouds,37.1041,-113.5841,Best Western Plus Abbey Inn
13,Aklavik,CA,72.43,overcast clouds,68.2191,-135.0107,Aklavik Inn
14,Cockeysville,US,79.23,scattered clouds,39.4812,-76.6439,Embassy Suites by Hilton Baltimore Hunt Valley
15,Kavieng,PG,84.06,scattered clouds,-2.5744,150.7967,Nusa Island Retreat
16,Atuona,PF,78.37,scattered clouds,-9.8,-139.0333,Villa Enata
17,Busselton,AU,57.09,overcast clouds,-33.65,115.3333,Observatory Guest House
18,Alofi,NU,82.29,scattered clouds,-19.0595,-169.9187,Taloa Heights
19,Dingle,PH,82.4,broken clouds,10.9995,122.6711,SEGAYA PROPERTY
20,Khatanga,RU,56.61,broken clouds,71.9667,102.5,"Gostinitsa ""Zapolyar'ye"""
21,Rikitea,PF,69.46,clear sky,-23.1203,-134.9692,People ThankYou
22,Cape Town,ZA,52.27,mist,-33.9258,18.4232,Southern Sun Waterfront Cape Town
23,Krasnoselkup,RU,62.74,light rain,65.7,82.4667,Krasnosel'kupnefteprodukt
25,Ponta Do Sol,PT,72.72,clear sky,32.6667,-17.1,Hotel do Campo
26,Carnarvon,AU,59.07,overcast clouds,-24.8667,113.6333,Hospitality Carnarvon
27,Mogadishu,SO,76.1,light rain,2.0371,45.3438,Hotel Juba
28,Hilo,US,80.33,light rain,19.7297,-155.09,Hilo Hawaiian Hotel
30,Sorland,NO,52.32,overcast clouds,67.667,12.6934,Sjybrygga fiskecamp
31,Hithadhoo,MV,81.57,broken clouds,-0.6,73.0833,Scoop Guest House
34,Mayo,US,81.01,broken clouds,38.8876,-76.5119,Resorts Resource Group International
35,Severo-Kurilsk,RU,56.84,broken clouds,50.6789,156.125,Kak Doma
37,Ribeira Grande,PT,70.92,scattered clouds,38.5167,-28.7,Quinta da Meia Eira
38,Vaini,TO,78.96,few clouds,-21.2,-175.2,Keleti Beach Resort
39,Hatillo,PR,82.85,broken clouds,18.4863,-66.8254,Hotel Parador El Buen Cafe
40,Port Alfred,ZA,53.31,clear sky,-33.5906,26.891,The Halyards Hotel
41,Havre-Saint-Pierre,CA,57.56,clear sky,50.2334,-63.5986,Auberge Niapiskau
43,Lagoa,PT,69.33,scattered clouds,39.05,-27.9833,Casa Das Faias
45,Saldanha,ZA,50.05,broken clouds,-33.0117,17.9442,Blue Bay Lodge
48,Butaritari,KI,83.68,light rain,3.0707,172.7902,Isles Sunset Lodge
49,Liaozhong,CN,86.52,broken clouds,41.5061,122.7242,Bishuiwan Hotel
50,Bathsheba,BB,79.41,few clouds,13.2167,-59.5167,Atlantis Hotel
51,Ushtobe,KZ,73.89,clear sky,45.2514,77.9838,"Gostinitsa ""Diyar"""
52,Torbay,CA,58.57,few clouds,47.6666,-52.7314,Gallows Cove
53,Libreville,GA,77.02,few clouds,0.3925,9.4537,Hotel Re-Ndama
54,Mahebourg,MU,70.09,light rain,-20.4081,57.7,Shandrani Beachcomber Resort & Spa
55,Hermanus,ZA,50.9,scattered clouds,-34.4187,19.2345,Misty Waves Boutique Hotel
57,Ust-Nera,RU,57.61,moderate rain,64.5667,143.2,Hotel Ust-Nera
58,Shinjo,JP,85.08,scattered clouds,38.7586,140.3008,New Grand Hotel Shinjo
59,Chapais,CA,71.38,overcast clouds,49.7834,-74.8492,Hôtel Opémiska
60,Byron Bay,AU,66.7,clear sky,-28.65,153.6167,Backpackers Inn on the Beach
61,Wajid,SO,71.58,broken clouds,3.8093,43.2471,xamdihotelresturant114
62,Yellowknife,CA,59.29,broken clouds,62.456,-114.3525,The Explorer Hotel
63,Richards Bay,ZA,52.81,few clouds,-28.783,32.0377,BON Hotel Waterfront Richards Bay
64,Fortuna,US,67.86,broken clouds,40.5982,-124.1573,Super 8 by Wyndham Fortuna
65,Cherskiy,RU,53.46,broken clouds,68.75,161.3,Gostinitsa
67,Reserva,BR,53.29,clear sky,-24.6503,-50.8506,Hotel Mavi
68,Hamilton,US,84.36,few clouds,39.1834,-84.5333,Six Acres Bed & Breakfast
71,Goderich,CA,74.91,overcast clouds,43.7501,-81.7165,Harmony Inn
72,Dakar,SN,82.53,clear sky,14.6937,-17.4441,Redface Studios Meublés
74,Haines Junction,CA,60.75,overcast clouds,60.7522,-137.5108,Parkside Inn
75,Thompson,CA,62.76,broken clouds,55.7435,-97.8558,Burntwood Hotel
77,Fukue,JP,79.16,light rain,32.6881,128.8419,Goto Guesthouse Utojuku & SA Car Rental
78,Bambous Virieux,MU,70.05,light rain,-20.3428,57.7575,Casa Tia Villa
79,Araure,VE,74.39,overcast clouds,9.5601,-69.2148,Hotel Las Majaguas
80,San Cristobal,VE,75.38,overcast clouds,7.7669,-72.225,Posada Villaven C.A.
81,Petropavlovsk-Kamchatskiy,RU,68.59,few clouds,53.0452,158.6483,The Hotel Petropavlovsky
82,Havre,FR,64.17,overcast clouds,49.5833,0.3333,gite bois jourdain
83,Uzhur,RU,68.36,overcast clouds,55.3036,89.8339,"Gostinitsa ""Turist"""
84,Bama,NG,77.47,broken clouds,11.5221,13.6856,UN Humanitarian Hub
85,Grand-Santi,GF,73.08,overcast clouds,4.25,-54.3833,Hotel La Villa Couacou
86,Sioux Lookout,CA,77.38,smoke,50.1001,-91.917,Knobby's Fly-In Camps
87,Vila Franca Do Campo,PT,72.01,scattered clouds,37.7167,-25.4333,Pestana Bahia Praia
88,Castro,BR,53.58,clear sky,-24.7911,-50.0119,CHACARA BAILLY
89,Chuy,UY,56.16,overcast clouds,-33.6971,-53.4616,Nuevo Hotel Plaza
90,Norman Wells,CA,68.04,broken clouds,65.282,-126.8329,Heritage Hotel
91,Vila Velha,BR,64.35,clear sky,-20.3297,-40.2925,Quality Suites Vila Velha
92,Brigantine,US,77.2,clear sky,39.4101,-74.3646,Legacy Vacation Resorts Brigantine Beach
93,Ambilobe,MG,62.91,scattered clouds,-13.2,49.05,Hôtel & Restaurant DIANA Ambilobe
94,Kankon,IN,78.6,overcast clouds,15.0167,74.0167,Palolem Beach Resort
95,Buala,SB,78.33,light rain,-8.145,159.5921,Maringe Lagoon Lodge
96,Ganzhou,CN,81.86,clear sky,28.8184,115.4327,Laotou Farm Restaurant Hostel
97,Esperance,AU,51.64,scattered clouds,-33.8667,121.9,Hospitality Esperance
98,Powell River,CA,86.04,few clouds,49.8496,-124.5361,Rodmay Hotel
99,Barstow,US,98.15,overcast clouds,34.8986,-117.0228,"Motel 6 Barstow, CA"
100,Shellbrook,CA,76.23,clear sky,53.2168,-106.4011,Shellbrook Hotel
101,Tomatlan,MX,85.93,scattered clouds,19.9333,-105.25,El Salvial
102,Margate,GB,64.69,broken clouds,51.3813,1.3862,Premier Inn Margate hotel
103,Veraval,IN,81.54,overcast clouds,20.9,70.3667,Lords Inn Somnath
104,Lompoc,US,85.01,few clouds,34.6391,-120.4579,"Holiday Inn Express Lompoc, an IHG Hotel"
105,Namibe,AO,66.36,clear sky,-15.1961,12.1522,Hotel Chik Chik Namibe
106,Nantucket,US,71.71,clear sky,41.2835,-70.0995,Jared Coffin House
107,Hambantota,LK,79.14,broken clouds,6.1241,81.1185,Bungalow 63
108,Avarua,CK,78.85,broken clouds,-21.2078,-159.775,Paradise Inn
109,Portland,US,93.7,clear sky,45.5234,-122.6762,Embassy Suites by Hilton Portland Downtown
113,Pisco,PE,62.65,clear sky,-13.7,-76.2167,Hotel San Isidro Oficial
114,Buchanan,LR,73.36,broken clouds,5.8808,-10.0467,Kamaneahn Hotel Inc
117,Ugoofaaru,MV,81.36,overcast clouds,5.6667,73.0,Ungoofaaru Inn
118,Seoul,KR,89.17,clear sky,37.5683,126.9778,롯데호텔 서울
119,Manadhoo,MV,81.84,overcast clouds,5.7667,73.3833,Vevu Guesthouse
120,Brae,GB,55.31,broken clouds,60.3964,-1.353,Busta House Hotel
121,Yavatmal,IN,74.61,overcast clouds,20.4,78.1333,Palash Inn
122,Nome,US,50.16,overcast clouds,64.5011,-165.4064,Dredge 7 Inn
123,Vrises,GR,77.2,clear sky,35.492,23.8899,Porto Platanias Beach Resort & Spa
124,Alekseyevka,RU,59.85,scattered clouds,50.6309,38.6903,Apartment on Ploshchad Pobedy
126,Palmer,US,74.57,broken clouds,42.1584,-72.3287,Wedgewood Motel
127,Ucluelet,CA,86.04,few clouds,48.9329,-125.5528,Black Rock Oceanfront Resort
128,Srebrenica,BA,68.77,scattered clouds,44.1064,19.2969,MX - prenocista
130,Nhamunda,BR,80.15,overcast clouds,-2.1861,-56.7131,Pousada Da Praia
132,Airai,TL,68.58,clear sky,-8.9266,125.4092,Juvinal Martin
134,Salalah,OM,77.09,drizzle,17.0151,54.0924,HAMDAN PLAZA HOTEL SALALAH
136,Peniche,PT,66.72,broken clouds,39.3558,-9.3811,Hotel Star inn Peniche
138,Geraldton,AU,55.81,overcast clouds,-28.7667,114.6,Broadwater Mariner Resort
139,Altay,CN,69.21,clear sky,47.8667,88.1167,Jinqiao Hotel
140,Ngunguru,NZ,62.17,overcast clouds,-35.6167,174.5,Pacific Rendezvous Motel Resort
141,Sawtell,AU,66.22,clear sky,-30.3833,153.1,Island Beach House Sawtell
142,Lanxi,CN,76.75,light rain,29.2195,119.477,Shangri-La Hotel
144,Khorramabad,IR,80.73,clear sky,33.4878,48.3558,Azadi Hotel
145,Lewiston,US,70.83,clear sky,44.1003,-70.2148,Hilton Garden Inn Auburn Riverwatch
146,Kieta,PG,85.24,overcast clouds,-6.2167,155.6333,Uruna Bay Retreat
147,Impfondo,CG,71.67,light rain,1.6381,18.0667,Auberge La Place de Jules
148,Dwarka,IN,82.9,overcast clouds,22.2394,68.9678,Hotel Narayan Avezika Comfort
152,Shenzhen,CN,86.14,light rain,22.5455,114.0683,Shenzhen Shanghai Hotel
153,Cidreira,BR,61.5,scattered clouds,-30.1811,-50.2056,Hotel Castelo
154,Corinto,GR,79.9,clear sky,37.9407,22.9573,Ephira Hotel
155,Safranbolu,TR,59.45,clear sky,41.2508,32.6942,Canbulat & Canbulat Tourism
156,Aleksandrov Gay,RU,67.95,few clouds,50.147,48.5704,Gostinitsa I.p. Yes'kov A.v
157,Ilebo,CD,68.4,clear sky,-4.3167,20.5833,Hôtel BUMAK
158,Svetlogorsk,BY,65.98,overcast clouds,52.6333,29.7333,Hotel Svetlogorsk JBIK
159,Meulaboh,ID,76.28,overcast clouds,4.1363,96.1285,Kost Pria
160,Eyl,SO,80.26,overcast clouds,7.9803,49.8164,Amiin Hotel
162,Amos,CA,62.58,moderate rain,48.5669,-78.1162,"Amosphère, complexe hôtelier"
163,Visnes,NO,61.57,clear sky,59.3556,5.2242,Park Inn Haugesund Airport
165,La Ronge,CA,68.25,broken clouds,55.1001,-105.2842,Northland Motor Hotel
166,Yulara,AU,55.24,scattered clouds,-25.2406,130.9889,Desert Gardens Hotel - Ayers Rock Resort
168,Ramsar,IR,80.04,overcast clouds,36.9226,50.6426,Rasa Residential Hotel
169,Dingtao,CN,80.89,clear sky,35.0683,115.5625,VX Heze Dingtao District Taoyi Road Hotel
170,Diu,IN,81.43,overcast clouds,20.7141,70.9822,Hotel Relax Inn
171,Shihezi,CN,80.65,clear sky,44.3,86.0333,Home Inn Shihezi Dongwu Road Century Square
172,Hualmay,PE,63.61,scattered clouds,-11.0964,-77.6139,Hotel Villa Kitzia Huacho
173,Dorado,PR,81.9,scattered clouds,18.4588,-66.2677,Embassy Suites by Hilton Dorado del Mar Beach Resort
174,Sao Filipe,CV,73.99,scattered clouds,14.8961,-24.4956,Hotel Xaguate
176,Bandarbeyla,SO,78.58,scattered clouds,9.4942,50.8122,JABIR HOTEL
177,Saint-Philippe,RE,65.75,light rain,-21.3585,55.7679,"Chambres d'hôte ""La Trinité"""
180,Talara,PE,66.16,broken clouds,-4.5772,-81.2719,Hostal Oro Negro
182,Harwich,GB,64.0,overcast clouds,51.9419,1.2844,Premier Inn Harwich hotel
183,Faanui,PF,78.53,light rain,-16.4833,-151.75,Bora-Bora Pearl Beach Resort & Spa
185,Inirida,CO,73.56,overcast clouds,3.8653,-67.9239,Fuente del Guania Hotel de Lujo
186,Camabatela,AO,58.06,clear sky,-8.1881,15.375,Pensão E Restaurantes
187,Matagami,CA,60.91,moderate rain,49.7502,-77.6328,Hôtel Matagami
188,Pendleton,US,97.74,clear sky,45.6721,-118.7886,Americas Best Value Inn Pendleton
189,Cabo San Lucas,MX,95.5,few clouds,22.8909,-109.9124,Hotel Tesoro Los Cabos
190,Gizo,SB,82.9,light rain,-8.103,156.8419,Imagination Island
191,Flinders,AU,56.37,few clouds,-34.5833,150.8552,Shellharbour Resort & Conference Centre
192,Dali,CN,64.2,scattered clouds,25.7,100.1833,Dali Travelling With Hostel
193,Dalvik,IS,57.13,broken clouds,65.9702,-18.5286,Dalvík HI Hostel
194,Te Anau,NZ,50.9,overcast clouds,-45.4167,167.7167,Kingsgate Hotel Te Anau
195,Kimbe,PG,86.86,broken clouds,-5.5502,150.1429,Kimbe Bay Hotel
196,Grand Baie,MU,70.27,clear sky,-20.0182,57.5802,Trou aux Biches Beachcomber Golf Resort & Spa
197,Port Elizabeth,ZA,50.92,clear sky,-33.918,25.5701,39 On Nile Guest House
198,Golden,US,85.48,scattered clouds,39.7555,-105.2211,"The Golden Hotel, Ascend Hotel Collection"
199,Klaksvik,FO,50.92,broken clouds,62.2266,-6.589,Airbnb rooms
200,Bengkulu,ID,75.99,few clouds,-3.8004,102.2655,Grage Hotel Bengkulu
201,San Quintin,MX,71.73,overcast clouds,30.4833,-115.95,Don Eddie's Sport Fishing Center
202,Spentrup,DK,65.95,scattered clouds,56.537,10.0379,Hvidsten Inn
203,Port Moresby,PG,72.82,haze,-9.4431,147.1797,Lamana Hotel (Port Moresby)
205,Artyom,AZ,78.94,clear sky,40.4723,50.333,Merdan Respect
206,Linhares,BR,62.58,clear sky,-19.3911,-40.0722,Hotel Conceição
207,Constitucion,CL,51.82,overcast clouds,-35.3333,-72.4167,Hotel Boutique Las Azucenas
208,Hasaki,JP,84.29,clear sky,35.7333,140.8333,Hotel Sunrise Choshi
209,Rosetta,EG,76.71,clear sky,31.4044,30.4164,Green Valley
210,Zeya,RU,68.9,light rain,53.75,127.2667,Kapital Inn
212,Northam,GB,64.65,overcast clouds,51.0333,-4.2167,Durrant House Hotel
213,Touros,BR,76.1,clear sky,-5.1989,-35.4608,INN NEW HORIZON
215,Lalibela,ET,58.53,light rain,12.0333,39.0333,Honey Land Hotel Lalibela
216,Katsuura,JP,86.14,clear sky,35.1333,140.3,Katsuura Hotel Mikazuki
217,Gornopravdinsk,RU,55.87,overcast clouds,60.05,69.9,Burovik
218,Jalu,LY,77.02,clear sky,29.0331,21.5482,صاحبة الفخامة
219,Baruun-Urt,MN,69.22,overcast clouds,46.6806,113.2792,Ахмадын амралт сувилал
220,Valparaiso,CL,54.52,broken clouds,-33.0393,-71.6273,Hotel Ultramar
221,Ibotirama,BR,72.61,broken clouds,-12.1853,-43.2206,Serra do Rio Hotel
222,Los Llanos De Aridane,ES,67.75,scattered clouds,28.6585,-17.9182,Valle Aridane
223,Akhtubinsk,RU,70.25,clear sky,48.2795,46.1722,Vzlet
225,Fairbanks,US,67.23,broken clouds,64.8378,-147.7164,Westmark Fairbanks Hotel & Conference Center
226,Kenai,US,64.02,overcast clouds,60.5544,-151.2583,Aspen Extended Stay Suites
227,Naantali,FI,59.86,clear sky,60.4674,22.0243,Naantali Spa Hotel & Resort
229,La Palma,US,95.02,clear sky,33.8464,-118.0467,La Quinta Inn & Suites by Wyndham Buena Park
230,Olinda,BR,69.53,broken clouds,-8.0089,-34.8553,Hotel Albergue de Olinda
231,Namatanai,PG,84.6,clear sky,-3.6667,152.4333,Seagulls Inn Namatani
234,Kaliganj,BD,80.89,broken clouds,23.4095,89.1402,Hasnat Palace
235,Praia Da Vitoria,PT,71.85,few clouds,38.7333,-27.0667,Hotel Branco I
236,Jumla,NP,65.03,overcast clouds,29.2747,82.1838,"अन्नी घर, जुम्ला - Anni Ghar"
237,Chumikan,RU,60.42,light rain,54.7183,135.315,Fortuna
238,San Vicente,AR,62.76,clear sky,-26.6167,-54.1333,Complejo Turístico Farelluk
239,Souillac,MU,70.18,scattered clouds,-20.5167,57.5167,Shanti Maurice Resort & Spa
240,Pochutla,MX,87.82,broken clouds,15.7432,-96.4661,Hotel Posada San Jose
242,Plettenberg Bay,ZA,52.18,clear sky,-34.0527,23.3716,Thanda Vista B&B
243,Ginda,IN,68.25,overcast clouds,30.6945,78.4932,Bal uma sankar hotel and restaurant
244,Ajdabiya,LY,76.75,clear sky,30.7554,20.2263,Almadina Hotel
246,Mount Isa,AU,64.17,few clouds,-20.7333,139.5,ibis Styles Mt Isa Verona
247,Manokwari,ID,80.71,overcast clouds,-0.8667,134.0833,Swiss Belhotel Manokwari
248,Ixtapa,MX,87.22,broken clouds,20.7,-105.2,Hotel Plaza Providencia
249,Dasoguz,TM,77.11,clear sky,41.8363,59.9666,Ташауз Отел
251,Dongsheng,CN,74.59,broken clouds,39.8161,109.9776,Crowne Plaza Ordos
252,Westport,US,76.62,clear sky,41.1415,-73.3579,The Westport Inn
255,Tuktoyaktuk,CA,64.4,broken clouds,69.4541,-133.0374,End of The Road Ltd.
256,Iranshahr,IR,86.34,scattered clouds,27.2025,60.6848,نیک سرشت
257,Shimoda,JP,84.11,clear sky,34.6667,138.95,Shimoda Tokyu Hotel
261,Sankeshwar,IN,73.04,overcast clouds,16.2667,74.4833,Rajdhani Hotel
262,Tecoanapa,MX,83.23,overcast clouds,16.5167,-98.75,Hotel Manglares
263,Amahai,ID,79.12,overcast clouds,-3.3333,128.9167,HOTEL ISABELA
264,Alta Floresta,BR,76.5,few clouds,-9.8756,-56.0861,Floresta Amazonica Hotel
265,Phonhong,LA,78.62,overcast clouds,18.5007,102.4166,Manyvong Guest House
268,Bubaque,GW,78.15,moderate rain,11.2833,-15.8333,"Casa Dora, Bubaque"
269,Ponta Delgada,PT,72.32,broken clouds,37.7333,-25.6667,Vila Nova Hotel
270,Sergeyevka,KZ,64.78,light rain,53.88,67.4158,Amina
271,Luoyang,CN,81.3,light rain,34.6836,112.4536,易家国际青年旅舍
272,Santa Rosa,PH,80.91,overcast clouds,14.3122,121.1114,Erlyn’s Sta Rosa City Home
273,La Romana,DO,82.13,scattered clouds,18.4273,-68.9728,Casa de Campo Resort and Villas
275,Richmond,US,78.91,broken clouds,37.5538,-77.4603,The Jefferson Hotel
276,Hofn,IS,52.18,clear sky,64.2539,-15.2082,Hótel Höfn
277,Kosai,JP,87.08,scattered clouds,34.7105,137.5316,Hotel Route Inn Hamanako
278,Manoel Urbano,BR,78.24,clear sky,-8.8389,-69.2597,Baixada Beira Rio
279,Cabedelo,BR,72.27,scattered clouds,-6.9811,-34.8339,Hotel Pigalle
280,Koszalin,PL,65.68,broken clouds,54.1944,16.1722,Club 2CV
281,Ginir,ET,55.67,overcast clouds,7.1333,40.7,Sura Dare Village
282,Carndonagh,IE,58.12,broken clouds,55.25,-7.2667,Riversdale Country House
283,Bethel,US,74.71,overcast clouds,41.3712,-73.414,Courtyard by Marriott Danbury
284,Kaoma,ZM,51.67,clear sky,-14.7833,24.8,KAOMA AIRPORT
285,Lebu,CL,51.26,overcast clouds,-37.6167,-73.65,Hostal Las Lilas
286,Imbituba,BR,64.81,clear sky,-28.24,-48.6703,Praia Hotel Imbituba
287,Leticia,CO,75.25,broken clouds,-4.2153,-69.9406,Hotel Amazon Bed and Breakfast / Hotel Amazon B&B
288,Sohag,EG,82.27,clear sky,26.557,31.6948,Civil Registry - Sohag 1
289,Pemangkat,ID,82.54,broken clouds,1.1667,108.9667,Ramah Kost KITA
290,Kamyaran,IR,71.55,clear sky,34.7956,46.9355,Mobile Adab موبایل ادب
291,Mocuba,MZ,58.96,light rain,-16.8392,36.9856,Phama Lodge
293,Marsh Harbour,BS,79.56,overcast clouds,26.5412,-77.0636,Abaco Beach Resort
294,Khawhai,IN,63.46,overcast clouds,23.3667,93.1167,Homestay Khawhai
295,Vila Do Maio,CV,75.99,overcast clouds,15.1333,-23.2167,Hotel Marilu
296,Inhambane,MZ,64.18,overcast clouds,-23.865,35.3833,Oceano
297,Griffith,US,86.14,clear sky,41.5284,-87.4237,"Motel 6 Hammond, IN - Chicago Area"
298,Puerto Escondido,MX,86.83,clear sky,15.85,-97.0667,Aldea del Bazar Hotel and Spa
299,Maningrida,AU,81.73,overcast clouds,-12.0667,134.2667,Dhukurrdji Lodge
301,Raudeberg,NO,59.2,broken clouds,61.9875,5.1352,Nordre Silda.
302,Chepareria,KE,60.57,light rain,1.3077,35.2039,Hamza Lodge
303,La Maddalena,IT,75.36,few clouds,41.2142,9.4083,Hotel Il Gabbiano
304,Rabaul,PG,83.16,scattered clouds,-4.1967,152.1721,Rabaul Hotel
305,Kodiak,US,60.31,scattered clouds,57.79,-152.4072,Best Western Kodiak Inn And Convention Center
306,Lar,IN,83.1,few clouds,26.2039,83.9717,Ovaiskarni ward Lar
308,Vao,NC,72.01,few clouds,-22.6667,167.4833,Hotel Kou-Bugny
310,Kloulklubed,PW,86.5,overcast clouds,7.0419,134.2556,Storyboard Beach Resort
312,Yashkul,RU,76.53,scattered clouds,46.1711,45.3435,Bon Voyazh
313,Waddan,LY,73.83,clear sky,29.1614,16.139,محل الشريف محمد العايب
314,Sisophon,KH,75.42,light rain,13.5859,102.9737,Pyramid Hotel
315,Singida,TZ,54.46,clear sky,-4.8167,34.75,Kampala Lodge
316,Radom,PL,69.75,broken clouds,51.4025,21.1471,Hotel Iskra - Radom
317,Porbandar,IN,81.61,overcast clouds,21.6422,69.6093,Lords Inn Porbandar
318,Imeni Poliny Osipenko,RU,86.41,overcast clouds,52.4201,136.4853,Yubileynaya
319,Port Hedland,AU,66.25,scattered clouds,-20.3167,118.5667,The Esplanade Hotel
320,Nawa,IN,85.42,scattered clouds,27.0167,75.0,"Sambharia Bhawan,Kuchaman Road,Nawa City"
321,Maravilha,BR,70.21,few clouds,-26.7608,-53.1725,Maravilha Palace Hotel
322,Awbari,LY,78.62,clear sky,26.5921,12.7805,فندق أوباري
323,Shingu,JP,85.19,overcast clouds,33.7333,135.9833,Shingu UI Hotel
324,Puerto Del Rosario,ES,71.35,few clouds,28.5004,-13.8627,Hotel JM Puerto del Rosario
325,Petatlan,MX,89.4,clear sky,17.5167,-101.2667,Hotel California Petatlán
326,Nikolskoye,RU,58.8,overcast clouds,59.7035,30.7861,Tourist House - Sablino
328,Naze,JP,81.52,overcast clouds,28.3667,129.4833,奄美ポートタワーホテル
329,Aksu,CN,84.72,clear sky,41.1231,80.2644,Pudong Holiday Hotel
330,Aras,ES,61.21,overcast clouds,42.5617,-2.356,Jardines de Viana Spa
331,Palauig,PH,82.04,overcast clouds,15.435,119.9045,Myhousebythesea
332,Teknaf,BD,81.0,overcast clouds,20.8624,92.3058,Forestry Guesthouse
335,Sitka,US,57.09,light rain,57.0531,-135.33,Westmark Sitka
336,Oussouye,SN,82.49,overcast clouds,12.485,-16.5469,Auberge du Routard
337,Conde,BR,71.06,scattered clouds,-7.2597,-34.9075,Pousada Beija Flor
338,Charlestown,AU,57.72,broken clouds,-32.95,151.6667,Panorama Motor Inn Hotel
339,Porto Novo,BJ,78.62,overcast clouds,6.4965,2.6036,Tour Eiffel Hotel Benin
340,Victoria,HK,86.25,overcast clouds,22.2855,114.1577,Mini Hotel Central
341,Nicoya,CR,74.75,overcast clouds,10.1483,-85.452,Guayacan Real
342,Chickasha,US,95.0,clear sky,35.0526,-97.9364,"Holiday Inn Express & Suites Chickasha, an IHG Hotel"
343,Yarim,YE,59.68,overcast clouds,14.298,44.3779,وليد المسوري ابو اسد
344,Eydhafushi,MV,81.91,overcast clouds,5.1033,73.0708,Soneva Fushi
345,Faya,SA,64.51,broken clouds,18.3851,42.4509,مقبرة ال مجمل
346,Coquimbo,CL,53.33,clear sky,-29.9533,-71.3436,Punto de encuentro
347,Jefferson City,US,92.82,clear sky,38.5767,-92.1735,DoubleTree by Hilton Hotel Jefferson City
348,Kaspiysk,RU,75.38,scattered clouds,42.8816,47.6392,Alima Hostel
349,Trud,BG,67.19,few clouds,42.2333,24.7333,Къща ХВ
350,Singaparna,ID,72.55,broken clouds,-7.3515,108.111,Wisma Dewi Hotel
351,Ahipara,NZ,59.27,overcast clouds,-35.1667,173.1667,Ahipara Holiday Park
352,Mococa,BR,62.46,clear sky,-21.4678,-47.0047,Hospedaria Sonhar
353,Otane,NZ,53.38,clear sky,-39.8833,176.6333,Ludlow Farmstay
354,Mankera,PK,94.87,clear sky,31.3866,71.4407,Haider Wood Supplier
355,Lorengau,PG,84.34,scattered clouds,-2.0226,147.2712,Lorengau Harbourside Hotel
356,Sambava,MG,67.14,light rain,-14.2667,50.1667,Melrose
359,Nouadhibou,MR,69.78,clear sky,20.931,-17.0347,El Medina
360,Bairiki,KI,87.8,scattered clouds,1.3292,172.9752,Tarawa Boutique Hotel
361,Kempsey,AU,63.95,few clouds,-31.0833,152.8333,Park Drive Motel
362,Huntingdon,GB,62.92,overcast clouds,52.3305,-0.1865,Huntingdon Marriott Hotel
363,Iwaki,JP,85.77,clear sky,37.05,140.8833,Toyoko Inn Iwaki Ekimae
365,Port Lincoln,AU,56.07,overcast clouds,-34.7333,135.8667,Port Lincoln Hotel
366,Kota Bahru,MY,80.55,few clouds,6.1333,102.2386,Grand Riverview Hotel
367,Kismayo,SO,76.05,broken clouds,-0.3582,42.5454,Agan-Hotel
368,Wasilla,US,65.75,light rain,61.5814,-149.4394,Alaska's Select Inn Wasilla
370,Mormugao,IN,78.06,broken clouds,15.4,73.8,Coconut Creek Resort
373,Nuoro,IT,74.39,clear sky,40.3211,9.3297,Hotel Sandalia
374,Mana,GF,77.13,overcast clouds,5.6592,-53.7767,LE SAMANA
375,Santa Cruz,BO,76.46,clear sky,-17.8,-63.1667,Aviador Hotel Boutique
376,Miri,MY,82.54,few clouds,4.4148,114.0089,"Mega Hotel, Miri"
377,Plonsk,PL,73.24,overcast clouds,52.6235,20.3755,Hotel Martex
379,Setermoen,NO,51.76,light rain,68.861,18.3486,Room4You
380,Ishigaki,JP,86.13,broken clouds,24.3448,124.1572,Hotel Peace Land Ishigakijima
382,Jizan,SA,83.34,broken clouds,17.3333,42.6667,شهدان. ابوالحجر
383,Manzil Salim,TN,78.8,clear sky,35.8567,8.4765,mohamed ben khlil omri
384,Broome,US,76.46,few clouds,42.2506,-75.833,Chenango Valley State Park
385,Moose Factory,CA,68.0,overcast clouds,51.2585,-80.6094,Moosonee Lilypad
386,San Patricio,US,92.53,clear sky,28.017,-97.5169,"Motel 6 Sinton, TX"
387,Kavaratti,IN,81.7,overcast clouds,10.5669,72.642,Hotels in Lakshadweep Islands
388,Sola,VU,88.47,light rain,-13.8833,167.55,Leumerus Bungalows
389,Les Cayes,HT,79.05,few clouds,18.2,-73.75,Villa Orphee
392,Cockburn Town,TC,82.0,scattered clouds,21.4612,-71.1419,Osprey Beach Hotel
393,Bilibino,RU,57.88,broken clouds,68.0546,166.4372,Gostinitsa Severyanka
394,Pangody,RU,54.9,overcast clouds,65.85,74.4859,Elizaveta Shevchuk's House
395,Severobaykalsk,RU,64.31,clear sky,55.65,109.3167,Hostel03RUS
396,Trzebiatow,PL,70.07,overcast clouds,54.0615,15.2648,MNE Apartament
397,Atambua,ID,80.6,clear sky,-9.1061,124.8925,Pastori 1 Jemaat Polycarpus
399,Nizhnevartovsk,RU,62.62,overcast clouds,60.9344,76.5531,Gostinichnyy Kompleks Samotlor
400,Saint Anthony,US,88.75,clear sky,45.0205,-93.218,"Holiday Inn Express Roseville-St. Paul, an IHG Hotel"
402,Kalmunai,LK,79.57,overcast clouds,7.4167,81.8167,VS Villa
403,Alice Springs,AU,54.95,broken clouds,-23.7,133.8833,Desert Palms Alice Springs
404,Nampula,MZ,58.95,scattered clouds,-15.1165,39.2666,BUTIK Hotel
405,Kaitong,CN,73.0,light rain,44.8135,123.15,Jinhe Fashion Hotel
406,Arraial Do Cabo,BR,69.82,clear sky,-22.9661,-42.0278,Pousada Porto Praia
407,Emerald,AU,66.34,clear sky,-23.5333,148.1667,The Irish Village
409,Rio Grande,BR,60.53,overcast clouds,-32.035,-52.0986,Hotel Atlântico Rio Grande
410,Imbituva,BR,53.06,clear sky,-25.23,-50.6044,Hotel Estrela
411,Bilma,NE,88.92,overcast clouds,18.6853,12.9164,Expeditions Ténére voyages
412,Arlit,NE,93.13,few clouds,18.7369,7.3853,Case de Passage De la Prefecture
413,Nador,MA,88.05,clear sky,35.174,-2.9287,Hôtel La Giralda
414,Nelson Bay,AU,57.99,clear sky,-32.7167,152.15,Mantra Nelson Bay
415,Salamiyah,SY,72.84,clear sky,35.0113,37.0532,Gondolas Forum grandchildren and grandparents
416,Dunedin,NZ,50.81,overcast clouds,-45.8742,170.5036,Scenic Hotel Southern Cross
417,Poum,NC,73.38,scattered clouds,-20.2333,164.0167,Gîte kajeon
419,Greece,US,77.36,overcast clouds,43.2098,-77.6931,"Homewood Suites by Hilton Rochester/Greece, NY"
420,Pativilca,PE,62.35,scattered clouds,-10.7,-77.7833,HOSTAL PATIVILCA
421,Evanston,US,88.32,scattered clouds,42.0411,-87.6901,Hilton Garden Inn Chicago North Shore/Evanston
422,Hervey Bay,AU,72.03,clear sky,-25.2986,152.8535,Shelly Bay Resort
423,Rorvik,NO,56.61,overcast clouds,64.8621,11.2373,Kysthotellet Rørvik AS
424,Lakes Entrance,AU,51.57,few clouds,-37.8811,147.981,The Esplanade Resort & Spa
425,Fort-Shevchenko,KZ,81.19,overcast clouds,44.5086,50.263,Oasis hotel Bautino
426,Quang Ngai,VN,83.3,overcast clouds,15.1167,108.8,Central Hotel
429,Tezu,IN,79.92,overcast clouds,27.9167,96.1667,Circuit House
430,Arcos De La Frontera,ES,72.91,clear sky,36.7508,-5.8106,Parador de Arcos de la Frontera
431,Biltine,TD,84.27,overcast clouds,14.5333,20.9167,Hôtel Trois Étoiles de Biltine
432,Jawhar,SO,72.77,scattered clouds,2.7809,45.5005,hantiwadaag village part one
433,Lokoja,NG,71.51,scattered clouds,7.8024,6.743,Hotel Charvid
434,Tacuarembo,UY,62.47,overcast clouds,-31.7333,-55.9833,Complejo San Fructuoso
435,Atar,MR,93.15,overcast clouds,20.5169,-13.0499,Oumou Elghoura
436,Ambulu,ID,76.5,clear sky,-8.345,113.6058,Hotel Ambulu Jember
437,Jerome,US,89.08,clear sky,42.7241,-114.5186,Best Western Sawtooth Inn & Suites
439,Port Blair,IN,82.04,overcast clouds,11.6667,92.75,"Welcomhotel By ITC Hotels, Bay Island, Port Blair"
440,Kirakira,SB,85.05,scattered clouds,-10.4544,161.9205,SanBiz Lodge
441,Porto Velho,BR,80.65,clear sky,-8.7619,-63.9039,Hotel Central
442,Cubuk,TR,65.95,clear sky,40.2386,33.0322,Çubuk Öğretmenevi
443,Guerrero Negro,MX,72.55,overcast clouds,27.9769,-114.0611,"Casa Laguna, Bed & Breakfast"
444,Lepa,PH,84.0,overcast clouds,15.8826,120.4493,Sitio Paway Bukid Malasiqui Pangasinan
446,Cam Ranh,VN,85.96,scattered clouds,11.9214,109.1591,OYO 598 Peony Hotel
447,Anloga,GH,77.22,overcast clouds,5.7947,0.8973,Pin Drop Hotel
449,Nishihara,JP,83.86,mist,26.1842,127.7558,Minshuku Agaihama
450,Noumea,NC,80.58,clear sky,-22.2763,166.4572,Hôtel Le Lagon
451,Alihe,CN,73.36,clear sky,50.5667,123.7167,Alihe Forestry Hotel
452,Mackay,AU,74.05,clear sky,-21.15,149.2,International Lodge Motel
453,Port Augusta,AU,53.74,clear sky,-32.5,137.7667,Majestic Oasis Apartments
454,Stornoway,GB,59.94,overcast clouds,58.2093,-6.3865,Caladh Inn
455,Tual,ID,79.92,overcast clouds,-5.6667,132.75,Grand Vilia Hotel
456,Areado,BR,54.46,clear sky,-21.3586,-46.1456,Afepesp
457,North Bend,US,63.86,overcast clouds,43.4065,-124.2243,Red Lion Hotel Coos Bay
458,Sumter,US,85.89,clear sky,28.7086,-82.0831,Paradise Oaks RV Resort
459,Saint Joseph,US,92.75,clear sky,39.7686,-94.8466,Whiskey Mansion Inn
460,Jepelacio,PE,64.99,clear sky,-6.1167,-76.95,Fundo ecológico Yajáuwajah
461,Khani,GE,63.97,overcast clouds,41.9563,42.9566,კურორტი ზეკარი/Resort Zekari
462,Cascais,PT,67.46,few clouds,38.6979,-9.4215,Hotel Vila Galé Cascais
464,Padang,ID,73.45,overcast clouds,-0.9492,100.3543,Mercure Padang
466,Mandalgovi,MN,64.6,overcast clouds,45.7625,106.2708,В.Ганбат
468,North Platte,US,89.49,clear sky,41.1239,-100.7654,"Holiday Inn Express & Suites North Platte, an IHG Hotel"
469,Hobyo,SO,76.35,overcast clouds,5.3505,48.5268,Halane Hotel and Restaurent
470,Tautira,PF,73.42,light rain,-17.7333,-149.15,Pension Oaoa
472,Esna,EG,84.49,clear sky,25.2934,32.554,Orient Star Dahabyia Isna 05 Nights Each Sunday
473,Verkhniye Kigi,RU,54.95,broken clouds,55.4083,58.6044,"Gostinitsa-Restoran ""Versal'"""
474,Wahiawa,US,88.12,light rain,21.5028,-158.0236,Aloha Wahiawa
475,Maragogi,BR,74.48,overcast clouds,-9.0122,-35.2225,Salinas do Maragogi All Inclusive Resort
476,Winslow,US,83.97,clear sky,35.0242,-110.6974,Best Western Plus Winslow Inn
477,Antofagasta,CL,56.48,scattered clouds,-23.65,-70.4,"Holiday Inn Express Antofagasta, an IHG Hotel"
478,Khash,IR,76.86,clear sky,28.2211,61.2158,دفتر پیشخوان دولت جمال زهی (خالد)
479,Valleyview,CA,75.24,overcast clouds,55.0667,-117.2859,Paradise Inn & Suites
480,Husavik,IS,57.11,broken clouds,66.0449,-17.3389,Bjarnabúð
482,Monrovia,LR,73.17,overcast clouds,6.3005,-10.7969,Sunset Inn
483,Catuday,PH,81.9,overcast clouds,16.2923,119.8062,Benjie's Kubo & Cottages
485,Harper,LR,74.86,overcast clouds,4.375,-7.7169,Screensaver
486,Canto Do Buriti,BR,77.11,clear sky,-8.11,-42.9444,Novo Hotel
488,Poronaysk,RU,75.97,overcast clouds,49.2167,143.1167,Avtovokzal Khostel Stolovaya
489,Mulanje,MW,53.96,scattered clouds,-16.0316,35.5,Mulanje Motel
490,Camacha,PT,68.76,scattered clouds,33.0833,-16.3333,Hotel Porto Santo & Spa
491,Poli,TZ,52.2,broken clouds,-3.3333,36.8,Urafiki House
493,Kiama,AU,55.26,scattered clouds,-34.6833,150.8667,The Sebel Kiama Harbourside
497,Acapulco,MX,85.82,few clouds,16.8634,-99.8901,HS Hotsson Smart Acapulco
498,Miyazu,JP,82.6,clear sky,35.5333,135.1833,Seikiro
499,Bowen,AU,73.62,clear sky,-20.0167,148.2333,Castle Motor Lodge Motel
501,Chateau-Thierry,FR,66.34,overcast clouds,49.05,3.4,Hôtel Restaurant Campanile Château Thierry
502,Bani,DO,81.86,overcast clouds,18.2833,-70.3333,Hospedaje Henriquez
503,Grand Gaube,MU,70.2,clear sky,-20.0064,57.6608,Veranda Paul et Virginie Hotel & Spa
504,Hurghada,EG,83.75,clear sky,27.2574,33.8129,Sea Star Beau Rivage Hotel
506,Assiniboia,CA,85.91,clear sky,49.6334,-105.9845,Canalta Hotel Assiniboia
507,Samarai,PG,79.7,overcast clouds,-10.6167,150.6667,Nuli Sapi
508,Spirit River,CA,73.92,overcast clouds,55.7833,-118.8361,Motel 49
509,Gasa,PS,80.58,broken clouds,31.5,34.4667,رابطة الفنانين الفلسطينيين
510,Teahupoo,PF,67.96,few clouds,-17.8333,-149.2667,Vanira Lodge
511,Nakamura,JP,81.18,overcast clouds,32.9833,132.9333,Hotel Crown Hills Nakamura
512,Slavonski Brod,HR,70.18,clear sky,45.1603,18.0156,Hotel Garten
513,Placido De Castro,BR,77.7,clear sky,-10.3353,-67.1856,Hotel Carioca
514,Muscat,OM,90.14,overcast clouds,23.6139,58.5922,Mutrah Hotel
515,Karratha,AU,74.3,clear sky,-20.7377,116.8463,ibis Styles Karratha
516,Kristiinankaupunki,FI,58.66,scattered clouds,62.2743,21.376,Hotel Alma
517,Altamira,BR,74.62,scattered clouds,-3.2033,-52.2064,Requinte Hotel
518,Dohar,BD,78.78,clear sky,23.5883,90.1469,zaman cominitue center
520,Belmonte,BR,73.9,scattered clouds,-15.8631,-38.8828,Pousada Monte Carmelo O Pão
521,Edson,CA,71.74,few clouds,53.5835,-116.4356,"Holiday Inn Express & Suites Edson, an IHG Hotel"
522,Beringovskiy,RU,56.28,overcast clouds,63.05,179.3167,Beringgorski
523,Saratov,RU,63.95,clear sky,51.5667,46.0333,Bogemiya Siti-Otel'
525,Mawlaik,MM,77.05,overcast clouds,23.6333,94.4167,AKZ Guest House
526,Yanam,IN,81.79,overcast clouds,16.7333,82.2167,The Regency Hotel
527,Shelburne,CA,69.42,light rain,44.0787,-80.2041,The Retreat at the Farm
528,Shangrao,CN,82.62,scattered clouds,28.4532,117.9686,Boyue boutique Hotel
529,Smoky Lake,CA,79.48,overcast clouds,54.1169,-112.4686,Country Garden Hotel
530,Banepa,NP,70.12,broken clouds,27.6298,85.5214,Dhulikhel Lodge Resort
531,Nuevo Casas Grandes,MX,70.75,overcast clouds,30.4167,-107.9167,Hotel Villa Colonial
532,Ambo,PE,58.05,clear sky,-10.1308,-76.2047,La Loma Resort
533,Kailua,US,91.38,broken clouds,21.4022,-157.7394,Sheffield House Bed & Breakfast
534,Rocha,UY,54.48,overcast clouds,-34.4833,-54.3333,Beleza Pura B&B
535,Ust-Uda,RU,71.13,scattered clouds,54.1742,103.0304,Gostinitsa Ust'-Uda Shans
536,Zhigansk,RU,64.53,few clouds,66.7697,123.3711,Gostinichnyy Kompleks Aylgy
537,Totskoye,RU,62.01,overcast clouds,52.5248,52.7623,Gostinitsa
538,Sechura,PE,66.65,clear sky,-5.5569,-80.8222,Hospedaje Costa Bella
539,Sao Felix Do Xingu,BR,74.79,few clouds,-6.6447,-51.995,Rio Xingu Camping
540,Neijiang,CN,79.52,clear sky,29.5835,105.0622,Han'an Hotel
542,Upata,VE,71.65,overcast clouds,8.0086,-62.3989,Posada Villa Nela
543,Springfield,US,91.33,clear sky,37.2153,-93.2982,University Plaza Hotel & Convention Center
544,Sorong,ID,80.91,light rain,-0.8833,131.25,waigo splash hotel
545,Alghero,IT,78.84,clear sky,40.5589,8.3181,Villa Las Tronas Hotel & Spa
546,Nabire,ID,75.76,overcast clouds,-3.3667,135.4833,Hotel Nusantara Nabire
547,Wilmington Island,US,80.98,clear sky,32.0036,-80.9737,Breezeway Studio Manor LLC
548,Buluang,PH,83.17,overcast clouds,13.3068,123.3425,Enon Beach Resort
550,Sohbatpur,PK,94.98,few clouds,28.5202,68.5434,Allu Hotel
551,Sur,OM,88.02,broken clouds,22.5667,59.5289,Sur Plaza Hotel
552,Beba,CU,82.67,light rain,22.4437,-79.7253,Hostal Cubaustria
554,Hami,CN,90.99,broken clouds,42.8,93.45,Laoyutang Resort
555,Bacolod,PH,82.63,overcast clouds,10.6667,122.95,Planta Hotel & Residences
556,Turbat,PK,82.56,clear sky,26.0023,63.044,Mubashar Quarters
557,Canchungo,GW,80.67,light rain,12.0672,-16.0333,Aparthotel Napalach
558,Fort Carson,US,79.97,few clouds,38.7375,-104.7889,Cheyenne Mountain Estates
559,Tolaga Bay,NZ,56.89,overcast clouds,-38.3667,178.3,Tolaga Bay Motel
560,Sinnamary,GF,77.99,light rain,5.3833,-52.95,ALETHEIA Appartement Sinnamary
561,Adrian,US,82.11,clear sky,41.8975,-84.0372,"Holiday Inn Express Adrian, an IHG Hotel"
562,Wageningen,NL,65.16,mist,51.9667,5.6667,Fletcher Hotel-Restaurant De Wageningsche Berg
563,Jaca,ES,68.02,clear sky,42.569,-0.5499,Hotel Real Jaca & Spa
564,Guatire,VE,77.5,light rain,10.4762,-66.5427,Parque Residencial Canaima I
565,Swiecie,PL,62.15,few clouds,53.4095,18.4474,Hotel i Restauracja Vistula
566,Akdepe,TM,80.6,clear sky,42.0551,59.3788,Мой дом
567,Kahului,US,86.02,light rain,20.8947,-156.47,Maui Seaside Hotel
568,Mitsamiouli,KM,75.15,light rain,-11.3847,43.2844,Foyer ADM
569,Nassau,US,77.68,clear sky,40.7507,-73.5829,Hilton Garden Inn Westbury
570,Palmeira Das Missoes,BR,61.16,clear sky,-27.8994,-53.3136,Hotel De Carli
571,Iberia,US,93.27,clear sky,29.9502,-91.7507,back to back rv park
572,Chama,CH,67.6,moderate rain,47.1821,8.4636,City Garden Hotel
573,Itacarambi,BR,65.91,clear sky,-15.1022,-44.0919,POUSADA CAMALEÃO
574,Auki,SB,83.19,overcast clouds,-8.7676,160.7034,Auki Motel
575,Kupang,ID,79.38,few clouds,-10.1667,123.5833,Hotel On The Rock by Prasanthi
577,Kabelvag,NO,56.53,light rain,68.2114,14.4817,Nyvågar Rorbuhotel
578,Athabasca,CA,76.82,broken clouds,54.7169,-113.2854,Athabasca Lodge Motel
579,Lazaro Cardenas,MX,83.1,overcast clouds,17.9583,-102.2,quinta antigua
580,Maarianhamina,AX,51.66,clear sky,60.0973,19.9348,Park Alandia Hotel
581,Belyy Yar,RU,67.89,clear sky,53.6039,91.3903,Pasportnyy Stol
582,Hovd,MN,67.62,few clouds,48.0056,91.6419,Hotel Khovd
583,Preobrazheniye,RU,82.09,broken clouds,42.9019,133.9064,Campsite Orlan
584,Port Macquarie,AU,63.9,scattered clouds,-31.4333,152.9167,Rydges Port Macquarie
585,Gannan,CN,76.59,scattered clouds,47.9147,123.5031,Gannan Supply and Marketing Cooperatives Hostel
586,Machilipatnam,IN,80.8,overcast clouds,16.1667,81.1333,R&B Bungalow
587,Marawi,PH,80.65,overcast clouds,7.9986,124.2928,Derogongan Residence
588,Nipawin,CA,78.84,clear sky,53.3668,-104.0009,Tobin Lake Motel
589,Teguise,ES,68.22,few clouds,29.0605,-13.564,B&B La Casona de Nazaret
590,Muswellbrook,AU,52.65,scattered clouds,-32.2667,150.9,Wayfarer Motel
591,Yen Bai,VN,81.25,overcast clouds,21.7,104.8667,AK MOTEL
592,Sayyan,YE,61.9,scattered clouds,15.1718,44.3244,متنزه و بحيرة سيان
593,Natal,BR,75.85,clear sky,-5.795,-35.2094,Villa Park Hotel | Natal
594,Ambovombe,MG,61.61,scattered clouds,-25.1667,46.0833,RELAHARA
595,Bellegarde-Sur-Valserine,FR,69.12,overcast clouds,46.1079,5.8242,Hôtel Pierre Blanche
596,Bousse,BF,78.37,overcast clouds,12.6606,-1.8922,Maison d'hôtes EBEN-EZER DE BOUSSE
597,Oga,IT,61.48,few clouds,46.4631,10.347,QC Terme Bagni di Bormio Bagni Nuovi
599,Saint-Pierre,RE,65.84,light rain,-21.3393,55.4781,Lindsey Hôtel
600,Delijan,IR,85.59,clear sky,33.9905,50.6838,ایزوگام آسیاگستردلیجان
601,Kluczbork,PL,66.97,overcast clouds,50.9728,18.2182,Hotel AMARiZ
602,Kandrian,PG,84.22,light rain,-6.2167,149.55,Kandrian Station
603,Samfya,ZM,54.64,clear sky,-11.3649,29.5565,Chita Lodge Samfya
604,Tabas,IR,88.23,clear sky,33.5959,56.9244,شرکت معماری مهراز شایگان آراد
605,Zhuhai,CN,87.98,few clouds,22.2769,113.5678,Nanyang Seascape Hotel Zhuhai Hotel
606,Sillod,IN,73.26,overcast clouds,20.3,75.65,पवन
607,San Juan,AR,52.48,clear sky,-31.5375,-68.5364,Hotel Provincial
609,Santa Fe,AR,66.99,overcast clouds,-31.6333,-60.7,Conquistador Hotel
613,Yarmouth,US,72.07,clear sky,41.7057,-70.2286,Blue Rock Resort
615,Puerto Cabezas,NI,78.87,broken clouds,14.0351,-83.3888,Cabaña Caribe
617,Along,IN,78.35,overcast clouds,28.1667,94.7667,Hotel West
619,Kulhudhuffushi,MV,80.22,overcast clouds,6.6221,73.07,Hondaafushi Island Resort
620,Moron,AR,59.0,moderate rain,-34.6534,-58.6198,Hotel Morón
622,Coahuayana,MX,90.88,broken clouds,18.7333,-103.6833,El rranchito michuacan de ocampos
625,Tabou,CI,74.66,overcast clouds,4.423,-7.3528,hotêl doufoulougou
626,The Pas,CA,73.42,scattered clouds,53.8251,-101.2541,Wescana Inn
627,Podor,MR,84.15,clear sky,16.6527,-14.9587,Auberge Du Tékrour
628,Vilhena,BR,71.28,clear sky,-12.7406,-60.1458,Hotel Mirage
629,Road Town,VG,80.64,thunderstorm,18.4167,-64.6167,"ZINGARA 76ft Catamaran, full crew-all included"
630,Pilar,BR,75.13,few clouds,-9.5972,-35.9567,Pousada e churrascaria Manguaba
631,Duliagaon,IN,78.67,overcast clouds,27.3667,95.3167,Kanchanjongha Complex
632,Akyab,MM,82.17,overcast clouds,20.15,92.9,Hotel Memory
633,Nizhnyaya Salda,RU,51.28,overcast clouds,58.0776,60.7202,Salda
635,Eureka,US,68.13,scattered clouds,40.8021,-124.1637,Eureka Inn Trademark By Wyndham
636,Sebeta,ET,54.61,moderate rain,8.9167,38.6167,Alem Hotel And Milto Cinema
637,Daultala,PK,84.61,overcast clouds,33.1925,73.1413,Waheed garmints and cosmetic
639,Beira,MZ,63.41,broken clouds,-19.8436,34.8389,Beira Terrace Hotel
641,Bereda,ES,59.92,overcast clouds,43.2686,-7.5406,Pazo de Verdes
642,Chengde,CN,76.86,overcast clouds,40.9725,117.9361,Super 8 Hotel
